{"type":"FeatureCollection","crs":

{"type":"name","properties":{"name":"EPSG:4326"}},"features":[{"type":"Feature","id":1,"geometry":{"type":"Point","coordinates":[-71.073203,43.031873]},"properties":{"Brand":"Starbucks","Store_Number":11854,"Name":"Epping Main St","Ownership_Type":"Company Owned","Features___Products":"Lunch, Oven-warmed Food, Reserve Amenity","Features___Service":"Starbucks Card Mobile, Wireless Hotspot","Features___Stations":"Drive-Through","Phone_Number":"603-679-8789","Location":"96 Calef Highway\nEpping, NH 03042-2224\n(43.031873, -71.073203)","Street_Address":"96 Calef Highway","City":"Epping","State":"NH","Zip":"03042-2224","Latitude":43.031873,"Longitude":-71.073203,"Insert_Date":1340389020000,"FID":1}},

{"type":"Feature","id":2,"geometry":{"type":"Point","coordinates":[-70.932044,42.989763]},"properties":{"Brand":"Starbucks","Store_Number":79420,"Name":"Stop & Shop-Exeter #204","Ownership_Type":"Licensed","Features___Products":null,"Features___Service":"Wireless Hotspot","Features___Stations":null,"Phone_Number":"603-772-1783","Location":"139 Portsmouth Ave\nExeter, NH 03833-2105\n(42.989763, -70.932044)","Street_Address":"139 Portsmouth Ave","City":"Exeter","State":"NH","Zip":"03833-2105","Latitude":42.989763,"Longitude":-70.932044,"Insert_Date":1340389020000,"FID":2}}]}